 [{"Location":"Main Building Lawns","Latitude":29.865866,"Longitude":77.896316},
  {"Location":"Swimming Pool","Latitude":29.866345,"Longitude":77.897384},
  {"Location":"Lawn Tennis Lawn","Latitude":29.867038,"Longitude":77.898816},
  {"Location":"Institue Gym","Latitude":29.866624,"Longitude":77.898382},
  {"Location":"OAT","Latitude":29.867084,"Longitude":77.897507},
  {"Location":"LBS Stadium","Latitude":29.867294,"Longitude":77.895629},
  {"Location":"MGCL","Latitude":29.865275,"Longitude":77.895146},
  {"Location":"LHC","Latitude":29.864856,"Longitude":77.893848},
  {"Location":"Hobbies Club","Latitude":29.863172,"Longitude":77.894921},
  {"Location":"Mech. Dept.","Latitude":29.862288,"Longitude":77.897281},
  {"Location":"ECE Dept.","Latitude":29.86347,"Longitude":77.896219},
  {"Location":"OP Jain Auditorium","Latitude":29.86307,"Longitude":77.898859},
  {"Location":"Civil Dept.","Latitude":29.862707,"Longitude":77.899245},
  {"Location":"Architecture","Latitude":29.863395,"Longitude":77.899862},
  {"Location":"CSE Dept.","Latitude":29.86326,"Longitude":77.895732},
  {"Location":"Chemical Dept.","Latitude":29.866777,"Longitude":77.893945},
  {"Location":"Mettalurgy Dept.","Latitude":29.867201,"Longitude":77.893087},
  {"Location":"NIH","Latitude":29.868736,"Longitude":77.894165},
  {"Location":"Dept. Of Earthquake Engineering","Latitude":29.86594,"Longitude":77.901064},
  {"Location":"Dept. of Management Studies","Latitude":77.894766,"Longitude":77.894766},
  {"Location":"KIH","Latitude":29.861437,"Longitude":77.89865},
  {"Location":"N C Nigam","Latitude":29.864321,"Longitude":77.899181},
  {"Location":"University Canteen","Latitude":29.861874,"Longitude":77.898017},
  {"Location":"Convocation Hall","Latitude":77.890872,"Longitude":77.890872},
  {"Location":"Rajendra Bhawan","Latitude":29.870499,"Longitude":77.893699},
  {"Location":"Ganga Bhawan","Latitude":29.871304,"Longitude":77.89402},
  {"Location":"Cautley Bhawan","Latitude":29.871141,"Longitude":77.896842},
  {"Location":"Rajiv Bhawan","Latitude":29.869741,"Longitude":77.894889},
  {"Location":"Ravindra Bhawan","Latitude":29.864963,"Longitude":77.892835},
  {"Location":"Azad Bhawan","Latitude":29.865117,"Longitude":77.890979},
  {"Location":"Govind Bhawan","Latitude":29.861567,"Longitude":77.894385},
  {"Location":"Jawahar Bhawan","Latitude":29.863814,"Longitude":77.901155},
  {"Location":"New Kasturba Bhawan","Latitude":29.867294,"Longitude":77.901182},
  {"Location":"Sarojini Bhawan","Latitude":29.865089,"Longitude":77.900184},
  {"Location":"Alpahar","Latitude":29.864391,"Longitude":77.895978},
  {"Location":"Students Club","Latitude":29.863777,"Longitude":77.894873},
  {"Location":"Music Section","Latitude":29.864242,"Longitude":77.896477}]